location,latitude,longitude,post,country,water,water_name,city_slug,water_name_slug,is_2020,city,bfsnum,population,buildings,streets,intersects,pcs_m,t_pcs_m
Bielersee_Vinelz_FankhauserS,47.0383984,7.1083114,3234,CH,l,Bielersee,vinelz,bielersee,True,Vinelz,502,867,164725,119591,6,4.295,2.67
Camp des pêches,47.052812,7.074053,2525,CH,l,Bielersee,le-landeron,bielersee,True,Le Landeron,6455,4645,517577,48557,8,1.4500000000000002,0.87
Gals reserve,47.0462719,7.0850075,3238,CH,l,Bielersee,gals,bielersee,True,Gals,494,827,464249,130101,8,1.28,0.815
Ligerz strand,47.083979,7.135894,2514,CH,l,Bielersee,ligerz,bielersee,True,Ligerz,740,544,93921,53452,4,9.099999999999998,6.0699999999999985
Lüscherz plage,47.0479551,7.151242,2576,CH,l,Bielersee,luscherz,bielersee,True,Lüscherz,497,560,240150,46161,6,0.7400000000000001,0.5
Lüscherz two,47.047519,7.1528292,2573,CH,l,Bielersee,luscherz,bielersee,True,Lüscherz,497,560,543793,72385,6,0.39999999999999997,0.05
Müllermatte,47.133339,7.227907000000001,2505,CH,l,Bielersee,biel,bielersee,True,Biel/Bienne,371,55159,842757,99633,4,5.419999999999997,3.85
Nidau strand,47.127196000000005,7.232613000000001,2560,CH,l,Bielersee,nidau,bielersee,True,Nidau,743,6823,113753,187838,4,2.52,1.92
Strandboden-Biel,47.132509999999996,7.233142,2503,CH,l,Bielersee,biel,bielersee,True,Biel/Bienne,371,55159,2052713,95597,4,3.4699999999999998,1.88
